[
  {
    "beach_name": "Gordon Beach",
    "city": "Tel Aviv",
    "wheelchair_accessible": true,
    "location": { "latitude": 32.0806, "longitude": 34.7725 }
  },
  {
    "beach_name": "Frishman Beach",
    "city": "Tel Aviv",
    "wheelchair_accessible": true,
    "location": { "latitude": 32.0800, "longitude": 34.7700 }
  },
  {
    "beach_name": "Hilton Beach",
    "city": "Tel Aviv",
    "wheelchair_accessible": true,
    "location": { "latitude": 32.0760, "longitude": 34.7770 }
  },
  {
    "beach_name": "Banana Beach",
    "city": "Tel Aviv",
    "wheelchair_accessible": false,
    "location": { "latitude": 32.0768, "longitude": 34.7799 }
  },
  {
    "beach_name": "Metzitzim Beach",
    "city": "Tel Aviv",
    "wheelchair_accessible": false,
    "location": { "latitude": 32.0782, "longitude": 34.7733 }
  },
  {
    "beach_name": "Alma Beach",
    "city": "Tel Aviv",
    "wheelchair_accessible": true,
    "location": { "latitude": 32.0750, "longitude": 34.7760 }
  },
  {
    "beach_name": "Herzliya Beach",
    "city": "Herzliya",
    "wheelchair_accessible": true,
    "location": { "latitude": 32.1650, "longitude": 34.8320 }
  },
  {
    "beach_name": "Tel Baruch Beach",
    "city": "Tel Aviv",
    "wheelchair_accessible": true,
    "location": { "latitude": 32.0920, "longitude": 34.7870 }
  },
  {
    "beach_name": "Jaffa Beach",
    "city": "Tel Aviv-Yafo",
    "wheelchair_accessible": true,
    "location": { "latitude": 32.0540, "longitude": 34.7500 }
  },
  {
    "beach_name": "Hof HaCarmel Beach",
    "city": "Haifa",
    "wheelchair_accessible": false,
    "location": { "latitude": 32.8222, "longitude": 34.9899 }
  },
  {
    "beach_name": "Bat Galim Beach",
    "city": "Haifa",
    "wheelchair_accessible": true,
    "location": { "latitude": 32.8150, "longitude": 34.9870 }
  },
  {
    "beach_name": "Coral Beach",
    "city": "Eilat",
    "wheelchair_accessible": true,
    "location": { "latitude": 29.5581, "longitude": 34.9482 }
  },
  {
    "beach_name": "Dolphin Reef Beach",
    "city": "Eilat",
    "wheelchair_accessible": false,
    "location": { "latitude": 29.5450, "longitude": 34.9480 }
  },
  {
    "beach_name": "Red Sea Beach",
    "city": "Eilat",
    "wheelchair_accessible": true,
    "location": { "latitude": 29.5500, "longitude": 34.9510 }
  },
  {
    "beach_name": "Ashkelon Beach",
    "city": "Ashkelon",
    "wheelchair_accessible": true,
    "location": { "latitude": 31.6700, "longitude": 34.5750 }
  },
  {
    "beach_name": "Ashdod Beach",
    "city": "Ashdod",
    "wheelchair_accessible": true,
    "location": { "latitude": 31.8000, "longitude": 34.6500 }
  },
  {
    "beach_name": "Caesarea Beach",
    "city": "Caesarea",
    "wheelchair_accessible": false,
    "location": { "latitude": 32.5000, "longitude": 34.9000 }
  },
  {
    "beach_name": "Netanya Beach",
    "city": "Netanya",
    "wheelchair_accessible": true,
    "location": { "latitude": 32.3300, "longitude": 34.8500 }
  },
  {
    "beach_name": "Rishon LeZion Beach",
    "city": "Rishon LeZion",
    "wheelchair_accessible": true,
    "location": { "latitude": 32.0560, "longitude": 34.7720 }
  },
  {
    "beach_name": "Herzliya Marina Beach",
    "city": "Herzliya",
    "wheelchair_accessible": false,
    "location": { "latitude": 32.1655, "longitude": 34.8350 }
  }
]
